{
  "type": "FeatureCollection",
  "features": [
    {
      "type": "Feature",
      "properties": {
        "name": "Illinois State Capitol",
        "type": "Government Building",
        "address": "401 S 2nd St, Springfield, IL 62701"
      },
      "geometry": {
        "type": "Point",
        "coordinates": [-89.6501, 39.7817]
      }
    },
    {
      "type": "Feature",
      "properties": {
        "name": "Willis Tower",
        "type": "Skyscraper",
        "address": "233 S Wacker Dr, Chicago, IL 60606"
      },
      "geometry": {
        "type": "Point",
        "coordinates": [-87.6356, 41.8789]
      }
    },
    {
      "type": "Feature",
      "properties": {
        "name": "Millennium Park",
        "type": "Park",
        "address": "201 E Randolph St, Chicago, IL 60602"
      },
      "geometry": {
        "type": "Point",
        "coordinates": [-87.6226, 41.8826]
      }
    },
    {
      "type": "Feature",
      "properties": {
        "name": "University of Illinois Urbana-Champaign",
        "type": "University",
        "address": "506 S Wright St, Urbana, IL 61801"
      },
      "geometry": {
        "type": "Point",
        "coordinates": [-88.2073, 40.1020]
      }
    },
    {
      "type": "Feature",
      "properties": {
        "name": "Starved Rock State Park",
        "type": "State Park",
        "address": "2668 E 875th Rd, Oglesby, IL 61348"
      },
      "geometry": {
        "type": "Point",
        "coordinates": [-88.9870, 41.3186]
      }
    },
    {
      "type": "Feature",
      "properties": {
        "name": "Abraham Lincoln Presidential Library",
        "type": "Library/Museum",
        "address": "112 N 6th St, Springfield, IL 62701"
      },
      "geometry": {
        "type": "Point",
        "coordinates": [-89.6473, 39.8014]
      }
    },
    {
      "type": "Feature",
      "properties": {
        "name": "Navy Pier",
        "type": "Tourist Attraction",
        "address": "600 E Grand Ave, Chicago, IL 60611"
      },
      "geometry": {
        "type": "Point",
        "coordinates": [-87.6108, 41.8917]
      }
    },
    {
      "type": "Feature",
      "properties": {
        "name": "Cahokia Mounds State Historic Site",
        "type": "Historic Site",
        "address": "30 Ramey St, Collinsville, IL 62234"
      },
      "geometry": {
        "type": "Point",
        "coordinates": [-90.0651, 38.6517]
      }
    },
    {
      "type": "Feature",
      "properties": {
        "name": "Field Museum",
        "type": "Museum",
        "address": "1400 S Lake Shore Dr, Chicago, IL 60605"
      },
      "geometry": {
        "type": "Point",
        "coordinates": [-87.6169, 41.8663]
      }
    },
    {
      "type": "Feature",
      "properties": {
        "name": "Shedd Aquarium",
        "type": "Aquarium",
        "address": "1200 S Lake Shore Dr, Chicago, IL 60605"
      },
      "geometry": {
        "type": "Point",
        "coordinates": [-87.6157, 41.8676]
      }
    }
  ]
}
